index,street_name,area,city,price,size,type,lat,lng,alt,Full Address
0,Torgny Segerstedts Allé 85, Rosendal , Uppsala,3735000.0,81.0,Apartment,49.5080762,5.4740405,0.0,"Torgny Segerstedts Allé 85,  Rosendal ,  Uppsala"
1,Grindtorpsvägen 33, Grindtorp , Täby,3330000.0,95.0,Apartment,59.4410755,18.0739161,0.0,"Grindtorpsvägen 33,  Grindtorp ,  Täby"
2,Femkampsgatan 1B, Lunden , Göteborg,2180000.0,37.0,Apartment,59.2633166,15.21301,0.0,"Femkampsgatan 1B,  Lunden ,  Göteborg"
4,Klangvägen 29, Östra Torn , Lund,8000000.0,152.0,House,2.6817337,101.6612934,0.0,"Klangvägen 29,  Östra Torn ,  Lund"
5,Fagottvägen 43, Fors , Kungsbacka,5050000.0,119.0,ChainHouse,57.4928745,12.1067573,0.0,"Fagottvägen 43,  Fors ,  Kungsbacka"
9,Nedre Hasselbacksvägen 12, Hasselbacken , Skövde,4775000.0,152.0,House,39.7580957,37.0276844,0.0,"Nedre Hasselbacksvägen 12,  Hasselbacken ,  Skövde"
15,Majrovägen 35, Farsta Stadsdelsområde , Stockholm,3600000.0,69.0,Apartment,59.2613466,18.0778678,0.0,"Majrovägen 35,  Farsta Stadsdelsområde ,  Stockholm"
19,Stallbacken 17D, Särö Kungsbacka Halland , Kungsbacka,4100000.0,61.0,Apartment,57.5052258,11.9377511,0.0,"Stallbacken 17D,  Särö Kungsbacka Halland ,  Kungsbacka"
20,Sankt Eriksgatan 31B, Kungsholmen , Stockholm,3250000.0,28.0,Apartment,59.338995,18.0361805,0.0,"Sankt Eriksgatan 31B,  Kungsholmen ,  Stockholm"
25,Torphagsvägen 6, Ekhagen , Stockholm,2300000.0,24.0,Apartment,59.3725399,18.0535969,0.0,"Torphagsvägen 6,  Ekhagen ,  Stockholm"
26,Bäckvägen 108, Telefonplan , Stockholm,2240000.0,26.0,Apartment,38.75,-77.47,0.0,"Bäckvägen 108,  Telefonplan ,  Stockholm"
31,Östra Varvsgatan 3BC, Dockan , Malmö,3400000.0,73.0,Apartment,59.31637139999999,18.0404439,0.0,"Östra Varvsgatan 3BC,  Dockan ,  Malmö"
33,Torgny Segerstedts Allé 85, Rosendal , Uppsala,3735000.0,81.0,Apartment,49.5080762,5.4740405,0.0,"Torgny Segerstedts Allé 85,  Rosendal ,  Uppsala"
34,Grindtorpsvägen 33, Grindtorp , Täby,3330000.0,95.0,Apartment,59.4410755,18.0739161,0.0,"Grindtorpsvägen 33,  Grindtorp ,  Täby"
35,Femkampsgatan 1B, Lunden , Göteborg,2180000.0,37.0,Apartment,59.2633166,15.21301,0.0,"Femkampsgatan 1B,  Lunden ,  Göteborg"
37,Klangvägen 29, Östra Torn , Lund,8000000.0,152.0,House,2.6817337,101.6612934,0.0,"Klangvägen 29,  Östra Torn ,  Lund"
38,Fagottvägen 43, Fors , Kungsbacka,5050000.0,119.0,ChainHouse,57.4928745,12.1067573,0.0,"Fagottvägen 43,  Fors ,  Kungsbacka"
42,Nedre Hasselbacksvägen 12, Hasselbacken , Skövde,4775000.0,152.0,House,39.7580957,37.0276844,0.0,"Nedre Hasselbacksvägen 12,  Hasselbacken ,  Skövde"
48,Majrovägen 35, Farsta Stadsdelsområde , Stockholm,3600000.0,69.0,Apartment,59.2613466,18.0778678,0.0,"Majrovägen 35,  Farsta Stadsdelsområde ,  Stockholm"
52,Stallbacken 17D, Särö Kungsbacka Halland , Kungsbacka,4100000.0,61.0,Apartment,57.5052258,11.9377511,0.0,"Stallbacken 17D,  Särö Kungsbacka Halland ,  Kungsbacka"
53,Sankt Eriksgatan 31B, Kungsholmen , Stockholm,3250000.0,28.0,Apartment,59.338995,18.0361805,0.0,"Sankt Eriksgatan 31B,  Kungsholmen ,  Stockholm"
58,Torphagsvägen 6, Ekhagen , Stockholm,2300000.0,24.0,Apartment,59.3725399,18.0535969,0.0,"Torphagsvägen 6,  Ekhagen ,  Stockholm"
59,Bäckvägen 108, Telefonplan , Stockholm,2240000.0,26.0,Apartment,38.75,-77.47,0.0,"Bäckvägen 108,  Telefonplan ,  Stockholm"
64,Östra Varvsgatan 3BC, Dockan , Malmö,3400000.0,73.0,Apartment,59.31637139999999,18.0404439,0.0,"Östra Varvsgatan 3BC,  Dockan ,  Malmö"
72,Sankt Peders gata 13, Olympia , Helsingborg,1950000.0,70.0,Apartment,56.0499352,12.7062769,0.0,"Sankt Peders gata 13,  Olympia ,  Helsingborg"
76,Bergslagsgatan 3, Norrtull , Norrköping,1675000.0,76.0,Apartment,59.54068400000001,15.0306061,0.0,"Bergslagsgatan 3,  Norrtull ,  Norrköping"
78,Valhallavägen 47, Östermalm , Stockholm,2975000.0,24.0,Apartment,59.3432445,18.081682,0.0,"Valhallavägen 47,  Östermalm ,  Stockholm"
80,Rosenholmsvägen 9C, Backabo , Karlskrona,700000.0,80.0,Apartment,56.20603569999999,15.6199032,0.0,"Rosenholmsvägen 9C,  Backabo ,  Karlskrona"
81,Kvarngatan 14, Centrum , Kävlinge,2300000.0,82.0,House,59.3174606,18.0678304,0.0,"Kvarngatan 14,  Centrum ,  Kävlinge"
83,Västra Ärnäs 22, Lima , Malung-Sälen,875000.0,87.0,House,3.1100898,101.6260521,0.0,"Västra Ärnäs 22,  Lima ,  Malung-Sälen"
84,Östra Utsjö 15, Malung , Malung-Sälen,995000.0,111.0,House,48.7724792,-95.72415439999999,0.0,"Östra Utsjö 15,  Malung ,  Malung-Sälen"
85,Hyllegatan 5A, Backa , Ystad,1100000.0,60.5,Apartment,55.4400792,13.8275526,0.0,"Hyllegatan 5A,  Backa ,  Ystad"
89,Storgatan 12, Ekenässjön , Vetlanda,1195000.0,155.0,House,57.42746,15.08533,0.0,"Storgatan 12,  Ekenässjön ,  Vetlanda"
93,Augustendalsvägen 30, Nacka Strand , Nacka,4350000.0,70.0,Apartment,59.3156395,18.1607905,0.0,"Augustendalsvägen 30,  Nacka Strand ,  Nacka"
94,Essingetorget 46, Stora Essingen , Stockholm,2950000.0,44.0,Apartment,59.3202488,17.9878385,0.0,"Essingetorget 46,  Stora Essingen ,  Stockholm"
102,Rya Byväg 195, Tollarp , Kristianstad,1150000.0,150.0,House,56.0293936,14.1566778,0.0,"Rya Byväg 195,  Tollarp ,  Kristianstad"
103,Norrtäljevägen 820, Centrala Norrtälje , Norrtälje,2650000.0,43.0,House,59.7595841,18.7013584,0.0,"Norrtäljevägen 820,  Centrala Norrtälje ,  Norrtälje"
104,Fogdegatan 3B, Lindö , Kalmar,995000.0,44.0,Apartment,58.4299299,15.5720979,0.0,"Fogdegatan 3B,  Lindö ,  Kalmar"
106,Nynäsvägen 84, Centrala , Haninge,2825000.0,64.0,Apartment,24.8328658,67.04819499999999,0.0,"Nynäsvägen 84,  Centrala ,  Haninge"
107,Södra Strandvägen 1, Mellbystrand , Laholm,5500000.0,38.0,LeisureHouse,56.49266009999999,12.9370368,0.0,"Södra Strandvägen 1,  Mellbystrand ,  Laholm"
109,Himlajordsbacken 6, Enviken , Norrtälje,2450000.0,54.0,LeisureHouse,60.8080652,15.7576919,0.0,"Himlajordsbacken 6,  Enviken ,  Norrtälje"
112,Byvägen 49, Gargnäs , Sorsele,100000.0,195.0,House,65.5349378,17.5421752,0.0,"Byvägen 49,  Gargnäs ,  Sorsele"
113,Tuntorpsvägen 27, Tungelsta , Haninge,2900000.0,37.0,House,59.1239059,18.0496266,0.0,"Tuntorpsvägen 27,  Tungelsta ,  Haninge"
114,Sockergatan 6, Centrum/Kungsängen/Industristaden , Uppsala,2300000.0,49.0,Apartment,59.8533661,17.6537222,0.0,"Sockergatan 6,  Centrum/Kungsängen/Industristaden ,  Uppsala"
115,Flackstavägen 94, Flacksta , Eskilstuna,4500000.0,180.0,House,59.3734586,16.4728038,0.0,"Flackstavägen 94,  Flacksta ,  Eskilstuna"
117,Nässland 155, Älandsbro , Härnösand,645000.0,180.0,House,38.8090413,-77.60205690000001,0.0,"Nässland 155,  Älandsbro ,  Härnösand"
122,Olhemmings Gärdsta 148-154, Hallenbygden , Åre,2300000.0,170.0,Farm,38.9867355,-77.5340315,0.0,"Olhemmings Gärdsta 148-154,  Hallenbygden ,  Åre"
124,Barlingbo Prästgård 130, Barlingbo , Gotland,6500000.0,342.0,House,57.5683043,18.4621437,0.0,"Barlingbo Prästgård 130,  Barlingbo ,  Gotland"
126,Tomtebogatan 12A, Måsta , Eskilstuna,1395000.0,78.0,Apartment,59.341406,18.031385,0.0,"Tomtebogatan 12A,  Måsta ,  Eskilstuna"
131,Flygarvägen 187, Barkarby , Järfälla,3825000.0,103.0,TerracedHouse,38.7251427,-77.7337628,0.0,"Flygarvägen 187,  Barkarby ,  Järfälla"
132,Spjutgatan 40, Ektorp , Norrköping,1320000.0,66.5,Apartment,58.5771536,16.1646165,0.0,"Spjutgatan 40,  Ektorp ,  Norrköping"
141,Dockgatan 27, Dockan , Malmö,3400000.0,64.0,Apartment,55.6164579,12.9874069,0.0,"Dockgatan 27,  Dockan ,  Malmö"
144,Tegelviksgatan 41, Södermalm , Stockholm,4250000.0,48.0,Apartment,59.3112867,18.0985069,0.0,"Tegelviksgatan 41,  Södermalm ,  Stockholm"
145,Galonvägen 6, Bromma , Stockholm,1500000.0,15.0,Apartment,59.3399708,17.9486114,0.0,"Galonvägen 6,  Bromma ,  Stockholm"
147,Ankargatan 31, Söder , Hudiksvall,385000.0,48.0,Apartment,61.7444863,17.1448918,0.0,"Ankargatan 31,  Söder ,  Hudiksvall"
151,Stabbegatan 14, Björkekärr , Göteborg,2800000.0,62.0,Apartment,57.7161161,12.0477401,0.0,"Stabbegatan 14,  Björkekärr ,  Göteborg"
155,Yxnasundsvägen 19, Senoren , Karlskrona,4550000.0,116.0,House,56.1135101,15.7514118,0.0,"Yxnasundsvägen 19,  Senoren ,  Karlskrona"
157,Oxens gata 263, Brandbergen , Haninge,950000.0,46.0,Apartment,59.1690563,18.1633785,0.0,"Oxens gata 263,  Brandbergen ,  Haninge"
160,Floragatan 6, Rösa , Åmål,850000.0,123.0,House,59.3423314,18.0754163,0.0,"Floragatan 6,  Rösa ,  Åmål"
162,Åkerstigen 11, Visby , Gotland,3400000.0,95.0,House,57.46841209999999,18.4867447,0.0,"Åkerstigen 11,  Visby ,  Gotland"
167,Vetekornsgatan 37, Bifrost , Mölndal,3200000.0,114.0,Apartment,57.6585477,11.9911259,0.0,"Vetekornsgatan 37,  Bifrost ,  Mölndal"
168,Jungfrudansen 24, Huvudsta , Solna,2870000.0,39.5,Apartment,59.3458068,17.99352,0.0,"Jungfrudansen 24,  Huvudsta ,  Solna"
171,Klippvägen 14, Tumba , Botkyrka,3800000.0,120.0,House,59.1991746,17.8350568,0.0,"Klippvägen 14,  Tumba ,  Botkyrka"
173,Hagvägen 6A, Runby , Upplands Väsby,2200000.0,83.0,Apartment,59.5206872,17.8942171,0.0,"Hagvägen 6A,  Runby ,  Upplands Väsby"
174,Brunekullevägen 5D, Brune Kulle , Falkenberg,1925000.0,67.0,Apartment,56.8876916,12.5724939,0.0,"Brunekullevägen 5D,  Brune Kulle ,  Falkenberg"
175,Surtandalen Björkbacken 1, Bollebygd , Mark,2450000.0,97.0,House,57.6704149,12.590601,0.0,"Surtandalen Björkbacken 1,  Bollebygd ,  Mark"
176,Frodegatan 13B, Fålhagen , Uppsala,2115000.0,49.0,Apartment,59.8616769,17.6554424,0.0,"Frodegatan 13B,  Fålhagen ,  Uppsala"
179,Engholmsgatan 28A, Lamberget , Karlstad,875000.0,73.0,Apartment,59.3783548,13.5297813,0.0,"Engholmsgatan 28A,  Lamberget ,  Karlstad"
180,Paprikagatan 7, Bårslöv , Helsingborg,2800000.0,120.0,House,57.8188598,12.0322257,0.0,"Paprikagatan 7,  Bårslöv ,  Helsingborg"
187,Storgatan 18, Centrum , Uppsala,3075000.0,64.5,Apartment,55.5998816,13.0019717,0.0,"Storgatan 18,  Centrum ,  Uppsala"
188,Skjutsaregatan 22E, Öster , Nyköping,1750000.0,75.0,Apartment,58.7553487,17.0156232,0.0,"Skjutsaregatan 22E,  Öster ,  Nyköping"
191,Inedalsgatan 15, Kungsholmen , Stockholm,4100000.0,35.0,Apartment,59.3348842,18.0359835,0.0,"Inedalsgatan 15,  Kungsholmen ,  Stockholm"
192,Odengatan 36B, Vasastan , Stockholm,4800000.0,42.0,Apartment,59.3434895,18.0531961,0.0,"Odengatan 36B,  Vasastan ,  Stockholm"
197,Rustmästaregatan 15, Kviberg , Göteborg,3200000.0,79.0,Apartment,57.7339643,12.0297358,0.0,"Rustmästaregatan 15,  Kviberg ,  Göteborg"
201,Orrstigen 18, Knislinge , Östra Göinge,1300000.0,127.0,House,56.1939936,14.0768415,0.0,"Orrstigen 18,  Knislinge ,  Östra Göinge"
206,Tenorgatan 14, Högsbo , Göteborg,1820000.0,61.0,Apartment,55.5561862,13.0080689,0.0,"Tenorgatan 14,  Högsbo ,  Göteborg"
208,Kornvägen 9, Norsborg , Botkyrka,1750000.0,78.5,Apartment,59.2471623,17.8289801,0.0,"Kornvägen 9,  Norsborg ,  Botkyrka"
209,Lokföraregatan 9A, Väster , Lund,2250000.0,45.0,Apartment,46.71012229999999,14.0761152,0.0,"Lokföraregatan 9A,  Väster ,  Lund"
211,Valhallavägen 174, Östermalm , Stockholm,6000000.0,43.0,Apartment,59.3432445,18.081682,0.0,"Valhallavägen 174,  Östermalm ,  Stockholm"
217,Finalgatan 5, Arenaparken , Lund,3625000.0,83.0,Apartment,55.6959512,13.1827114,0.0,"Finalgatan 5,  Arenaparken ,  Lund"
218,Skogstorpsvägen 29, Kapelle , Uddevalla,4300000.0,133.0,House,58.3371696,11.9244585,0.0,"Skogstorpsvägen 29,  Kapelle ,  Uddevalla"
219,Lantmästarvägen 8, Helgestahill , Eskilstuna,3875000.0,98.0,House,59.39029599999999,16.503126,0.0,"Lantmästarvägen 8,  Helgestahill ,  Eskilstuna"
222,Tellusgatan 3, Planetstaden , Lund,610000.0,13.0,Apartment,57.7593833,12.0710494,0.0,"Tellusgatan 3,  Planetstaden ,  Lund"
223,Tellusgatan 3, Planetstaden , Lund,610000.0,13.0,Apartment,57.7593833,12.0710494,0.0,"Tellusgatan 3,  Planetstaden ,  Lund"
224,Näktergalsgatan 26, Skåne , Vellinge,5400000.0,159.0,House,39.7580957,37.0276844,0.0,"Näktergalsgatan 26,  Skåne ,  Vellinge"
226,Noremon 26, Nore , Ljusdal,1900000.0,106.0,House,61.8385363,16.0443935,0.0,"Noremon 26,  Nore ,  Ljusdal"
227,Nybrogatan 22, Ljungbyhed Tätort , Klippan,400000.0,66.0,Apartment,59.3373929,18.0794598,0.0,"Nybrogatan 22,  Ljungbyhed Tätort ,  Klippan"
229,Bruksparken 5B, Hököpinge , Vellinge,2795000.0,100.0,Apartment,55.4975975,13.0030666,0.0,"Bruksparken 5B,  Hököpinge ,  Vellinge"
233,Ask-Upmarks Allé 47, Ramlösa , Helsingborg,2130000.0,105.0,TerracedHouse,56.0464674,12.6945121,0.0,"Ask-Upmarks Allé 47,  Ramlösa ,  Helsingborg"
238,Gaffelseglet 33, Vega , Haninge,2850000.0,67.0,Apartment,59.1825152,18.1364489,0.0,"Gaffelseglet 33,  Vega ,  Haninge"
241,Getbergsvägen 28, Getberget , Skellefteå,840000.0,44.5,Apartment,64.74925189999999,20.8957602,0.0,"Getbergsvägen 28,  Getberget ,  Skellefteå"
242,Stormgatan 2, Vädergatorna , Uppsala,1995000.0,82.5,Apartment,55.6115369,12.9989491,0.0,"Stormgatan 2,  Vädergatorna ,  Uppsala"
245,Rekylgatan 29, Haga , Västerås,1250000.0,70.5,Apartment,59.6290735,16.5719027,0.0,"Rekylgatan 29,  Haga ,  Västerås"
248,Ringgatan 61A, Råtorp , Karlstad,740000.0,38.0,Apartment,59.2747006,15.2036543,0.0,"Ringgatan 61A,  Råtorp ,  Karlstad"
252,Biblioteksgatan 22, Centrala Östersund , Östersund,850000.0,28.0,Apartment,59.3354755,18.0725894,0.0,"Biblioteksgatan 22,  Centrala Östersund ,  Östersund"
255,Kolonigatan 9C, Landala Egnahem , Göteborg,3150000.0,55.0,Apartment,59.660887,12.570514,0.0,"Kolonigatan 9C,  Landala Egnahem ,  Göteborg"
257,Drottninggatan 21, Centrum , Trollhättan,550000.0,22.5,Apartment,59.3349569,18.0603231,0.0,"Drottninggatan 21,  Centrum ,  Trollhättan"
258,Sankt Johannesgatan 36A, Luthagen , Uppsala,1545000.0,33.0,Apartment,59.81245209999999,17.6676794,0.0,"Sankt Johannesgatan 36A,  Luthagen ,  Uppsala"
259,Torsbovägen 36, Torsbo , Vaggeryd,2200000.0,92.0,House,57.5078345,14.1397782,0.0,"Torsbovägen 36,  Torsbo ,  Vaggeryd"
260,Brunflovägen 23C, Odenslund , Östersund,2045000.0,69.0,Apartment,63.1663884,14.6565202,0.0,"Brunflovägen 23C,  Odenslund ,  Östersund"
261,Brahegatan 10, Torpa , Jönköping,3700000.0,93.0,Apartment,59.3398836,18.0777503,0.0,"Brahegatan 10,  Torpa ,  Jönköping"
262,Linbastagatan 11, Filborna , Helsingborg,1350000.0,45.0,Apartment,56.05335,12.7259428,0.0,"Linbastagatan 11,  Filborna ,  Helsingborg"
263,Bokgatan 6, Skaraborg , Hjo,2150000.0,140.0,House,58.3034509,14.2733355,0.0,"Bokgatan 6,  Skaraborg ,  Hjo"
264,Scheelevägen 25, Tumba Villastad , Botkyrka,5150000.0,137.0,House,59.1954621,17.8186633,0.0,"Scheelevägen 25,  Tumba Villastad ,  Botkyrka"
265,Imatragatan 260, Akalla Trädgårdsstad , Stockholm,2500000.0,85.0,TerracedHouse,59.4111029,17.9174015,0.0,"Imatragatan 260,  Akalla Trädgårdsstad ,  Stockholm"
266,Amiralsgatan 84C, Nobeltorget , Malmö,1100000.0,53.0,Apartment,55.5867616,13.04357,0.0,"Amiralsgatan 84C,  Nobeltorget ,  Malmö"
267,Drottninggatan 50, Centrum , Helsingborg,2495000.0,55.0,Apartment,59.8570606,17.6356516,0.0,"Drottninggatan 50,  Centrum ,  Helsingborg"
269,Skomakaregatan 4A, Lilla Torg , Malmö,2910000.0,48.0,Apartment,55.6046443,13.0005951,0.0,"Skomakaregatan 4A,  Lilla Torg ,  Malmö"
273,Salagatan 53C, Fålhagen , Uppsala,3100000.0,60.5,Apartment,59.3855264,17.8899865,0.0,"Salagatan 53C,  Fålhagen ,  Uppsala"
274,Pellesberg 91, Askö , Avesta,825000.0,45.0,LeisureHouse,60.1699379,16.1164926,0.0,"Pellesberg 91,  Askö ,  Avesta"
275,Alphyddevägen 6, Finntorp , Nacka,5700000.0,96.0,Apartment,59.3075964,18.1240721,0.0,"Alphyddevägen 6,  Finntorp ,  Nacka"
276,Rallaregatan 2D, Väster , Lund,2550000.0,54.0,Apartment,55.7074989,13.1840966,0.0,"Rallaregatan 2D,  Väster ,  Lund"
277,Sockergatan 2, Centrum Uppsala , Uppsala,4995000.0,114.0,Apartment,59.8533661,17.6537222,0.0,"Sockergatan 2,  Centrum Uppsala ,  Uppsala"
278,Von Lingens väg 56, Rosengård , Malmö,800000.0,59.5,Apartment,52.5238099,7.316981699999999,0.0,"Von Lingens väg 56,  Rosengård ,  Malmö"
284,Regngatan 6, Gränby , Uppsala,1750000.0,90.0,Apartment,59.8716605,17.6636961,0.0,"Regngatan 6,  Gränby ,  Uppsala"
289,Tellusgatan 3, Planetstaden , Lund,625000.0,13.0,Apartment,57.7593833,12.0710494,0.0,"Tellusgatan 3,  Planetstaden ,  Lund"
290,Klamparegatan 15, Centrum , Göteborg,2400000.0,39.0,Apartment,57.6971018,11.9437995,0.0,"Klamparegatan 15,  Centrum ,  Göteborg"
292,Stenvinkelsgatan 15, Centrum , Halmstad,2200000.0,59.5,Apartment,56.6749842,12.8508199,0.0,"Stenvinkelsgatan 15,  Centrum ,  Halmstad"
293,Ryttmästaregatan 13D, Ringstorp , Helsingborg,2060000.0,63.5,Apartment,56.0646946,12.7000879,0.0,"Ryttmästaregatan 13D,  Ringstorp ,  Helsingborg"
297,Emmy Rappes gata 3, Vasastan , Stockholm,4000000.0,40.5,Apartment,59.342675,18.0385799,0.0,"Emmy Rappes gata 3,  Vasastan ,  Stockholm"
299,Västra vägen 66A, Granlo , Sundsvall,1100000.0,96.5,Apartment,62.390811,17.306927,0.0,"Västra vägen 66A,  Granlo ,  Sundsvall"
301,Skogsvägen 8, Valla , Katrineholm,1900000.0,227.0,House,58.99555109999999,16.2054756,0.0,"Skogsvägen 8,  Valla ,  Katrineholm"
304,Dalgången 25, Centrala Hisingen , Göteborg,2850000.0,86.0,Apartment,24.8333405,67.04790360000001,0.0,"Dalgången 25,  Centrala Hisingen ,  Göteborg"
307,Ronnebygatan 16, Trossö , Karlskrona,1400000.0,53.0,Apartment,56.1620576,15.5895899,0.0,"Ronnebygatan 16,  Trossö ,  Karlskrona"
308,Besksötagatan 14, Munksundet , Enköping,2500000.0,119.0,House,59.63361159999999,17.0638272,0.0,"Besksötagatan 14,  Munksundet ,  Enköping"
309,Södra Munkarp 313, Skåne , Höör,851000.0,140.0,House,39.7580957,37.0276844,0.0,"Södra Munkarp 313,  Skåne ,  Höör"
310,Bandygränd 40, Ektorp , Norrköping,1795000.0,59.0,Apartment,58.587745,16.192421,0.0,"Bandygränd 40,  Ektorp ,  Norrköping"
315,Spiken Torp 9, Kållandsö , Lidköping,2700000.0,167.0,House,58.68799629999999,13.2003256,0.0,"Spiken Torp 9,  Kållandsö ,  Lidköping"
316,Lundagatan 6B, Västra Skogen , Solna,2000000.0,34.0,Apartment,59.3183603,18.0445062,0.0,"Lundagatan 6B,  Västra Skogen ,  Solna"
317,Ullstorp 1215, Ullstorp , Tomelilla,6200000.0,96.0,Farm,55.52914329999999,13.9836638,0.0,"Ullstorp 1215,  Ullstorp ,  Tomelilla"
319,Thorildsgatan 4, Bäckalyckan , Jönköping,8700000.0,359.0,House,57.6960068,11.9673168,0.0,"Thorildsgatan 4,  Bäckalyckan ,  Jönköping"
325,Sörbomsvägen 29, Virsbo , Surahammar,1225000.0,145.0,House,59.8730726,16.0444141,0.0,"Sörbomsvägen 29,  Virsbo ,  Surahammar"
329,Furudal Skolvägen 7, Furudal , Rättvik,2850000.0,225.0,House,61.1713931,15.1383573,0.0,"Furudal Skolvägen 7,  Furudal ,  Rättvik"
331,Klubbacken 59, Hägersten , Stockholm,3550000.0,61.0,Apartment,59.305223,17.9634025,0.0,"Klubbacken 59,  Hägersten ,  Stockholm"
336,Spolegatan 24, Centrum , Lund,2800000.0,63.0,Apartment,55.7096441,13.1875867,0.0,"Spolegatan 24,  Centrum ,  Lund"
338,Rubensbergsvägen 10, Asarum , Karlshamn,1950000.0,110.0,House,56.2049484,14.8275423,0.0,"Rubensbergsvägen 10,  Asarum ,  Karlshamn"
345,Annebergsgatan 9B, Borgmästargården , Malmö,2050000.0,65.5,Apartment,55.5851636,12.994283,0.0,"Annebergsgatan 9B,  Borgmästargården ,  Malmö"
346,Utsädesgatan 2B, Bifrost , Mölndal,1850000.0,41.0,Apartment,-33.8825949,151.2010083,0.0,"Utsädesgatan 2B,  Bifrost ,  Mölndal"
352,Julinsgatan 5, Ramlösa , Helsingborg,5900000.0,183.0,House,56.0230303,12.7572746,0.0,"Julinsgatan 5,  Ramlösa ,  Helsingborg"
355,Durkgatan 3, Borstahusen , Landskrona,3495000.0,84.0,Apartment,58.8981756,17.5354276,0.0,"Durkgatan 3,  Borstahusen ,  Landskrona"
357,Lokförarevägen 39, Kulltorp , Kristianstad,2975000.0,145.0,House,56.0293936,14.1566778,0.0,"Lokförarevägen 39,  Kulltorp ,  Kristianstad"
365,Genfärdabacken 8, Kivik , Simrishamn,3400000.0,125.0,House,46.2043907,6.1431577,0.0,"Genfärdabacken 8,  Kivik ,  Simrishamn"
367,Gaffelseglet 37, Vega , Haninge,1420000.0,32.0,Apartment,59.1825152,18.1364489,0.0,"Gaffelseglet 37,  Vega ,  Haninge"
368,Brigadgatan 3, Regementstaden , Borås,3700000.0,133.0,Apartment,56.0617297,12.7169302,0.0,"Brigadgatan 3,  Regementstaden ,  Borås"
369,Gimogatan 9, Stabby , Uppsala,2945000.0,87.5,Apartment,59.8686635,17.6099677,0.0,"Gimogatan 9,  Stabby ,  Uppsala"
371,Tröskaregatan 104, Lambohov , Linköping,2600000.0,119.0,TerracedHouse,58.3817662,15.5716182,0.0,"Tröskaregatan 104,  Lambohov ,  Linköping"
377,Scheelegatan 11A, Kungsholmen , Stockholm,8125000.0,65.0,Apartment,59.3318685,18.0447591,0.0,"Scheelegatan 11A,  Kungsholmen ,  Stockholm"
383,Mariagatan 9, Centrala Sundbyberg , Sundbyberg,3570000.0,60.0,Apartment,59.3625368,17.9772168,0.0,"Mariagatan 9,  Centrala Sundbyberg ,  Sundbyberg"
387,Kavallerigatan 86, Centrala Väsby , Upplands Väsby,1600000.0,63.0,Apartment,59.5145657,17.916131,0.0,"Kavallerigatan 86,  Centrala Väsby ,  Upplands Väsby"
389,Tvillinggatan 3A, Jungfruplatsen , Mölndal,1495000.0,27.0,Apartment,57.6578833,11.9959812,0.0,"Tvillinggatan 3A,  Jungfruplatsen ,  Mölndal"
392,Ronnebygatan 18, Sorgenfri , Malmö,1090000.0,31.0,Apartment,56.1620576,15.5895899,0.0,"Ronnebygatan 18,  Sorgenfri ,  Malmö"
394,Valhallavägen 146E, Östermalm , Stockholm,4500000.0,38.0,Apartment,59.3432445,18.081682,0.0,"Valhallavägen 146E,  Östermalm ,  Stockholm"
395,Vamsta 220, Österbybruk , Östhammar,500000.0,93.0,House,60.32867839999999,18.0980173,0.0,"Vamsta 220,  Österbybruk ,  Östhammar"
403,Sanetta Parkväg 9, Mariefred , Strängnäs,4295000.0,133.0,House,59.26203809999999,17.22311,0.0,"Sanetta Parkväg 9,  Mariefred ,  Strängnäs"
404,Sergeantgatan 28, Röda Höja , Malmö,2080000.0,85.5,Apartment,55.5812298,13.0715972,0.0,"Sergeantgatan 28,  Röda Höja ,  Malmö"
406,Ättekullagatan 16, Ättekulla , Helsingborg,2150000.0,76.5,Apartment,56.01161279999999,12.759542,0.0,"Ättekullagatan 16,  Ättekulla ,  Helsingborg"
407,Monsungatan 32, Eriksberg , Göteborg,2545000.0,37.0,Apartment,57.6985824,11.9075779,0.0,"Monsungatan 32,  Eriksberg ,  Göteborg"
411,Ulvstorp Anderstorp 1, Ulvstorp , Vara,1400000.0,153.0,House,57.2812542,13.6271963,0.0,"Ulvstorp Anderstorp 1,  Ulvstorp ,  Vara"
412,Norrtullsgatan 10, Centrum , Växjö,1900000.0,76.0,Apartment,59.3454699,18.0484409,0.0,"Norrtullsgatan 10,  Centrum ,  Växjö"
414,Pastorsvägen 18, Runby , Upplands Väsby,2975000.0,82.0,TerracedHouse,59.5120504,17.8862384,0.0,"Pastorsvägen 18,  Runby ,  Upplands Väsby"
416,Serenadgatan 48, Högaholm , Malmö,1400000.0,82.5,Apartment,55.5604916,13.0083878,0.0,"Serenadgatan 48,  Högaholm ,  Malmö"
423,Luntgatan 35, Centralt , Norrköping,2900000.0,82.0,Apartment,58.5922805,16.1759436,0.0,"Luntgatan 35,  Centralt ,  Norrköping"
428,Gethornskroken 3C, Väster , Hässleholm,890000.0,58.0,Apartment,56.157957,13.7541886,0.0,"Gethornskroken 3C,  Väster ,  Hässleholm"
435,Lanhagsgatan 1, Skarphagen , Norrköping,830000.0,40.0,Apartment,58.5783209,16.1525335,0.0,"Lanhagsgatan 1,  Skarphagen ,  Norrköping"
436,Ringduvegatan 61, Råby , Västerås,800000.0,87.0,Apartment,59.6104062,16.5003014,0.0,"Ringduvegatan 61,  Råby ,  Västerås"
438,Ryavägen 46, Sollentuna Töjnan , Sollentuna,5995000.0,158.0,TerracedHouse,59.4270694,17.9285759,0.0,"Ryavägen 46,  Sollentuna Töjnan ,  Sollentuna"
440,Knivingegatan 19, Ljungsbro , Linköping,2500000.0,111.0,TerracedHouse,58.4977953,15.510587,0.0,"Knivingegatan 19,  Ljungsbro ,  Linköping"
442,Vemdalsskalet Dalripevägen 3A, Vemdalsskalet , Härjedalen,7000000.0,102.0,Apartment,62.47608269999999,13.9875676,0.0,"Vemdalsskalet Dalripevägen 3A,  Vemdalsskalet ,  Härjedalen"
446,Prinsgatan 31B, Centrum , Boden,1400000.0,101.0,Apartment,65.8296151,21.7010922,0.0,"Prinsgatan 31B,  Centrum ,  Boden"
447,Backgårdsgatan 12, Trandared , Borås,2330000.0,100.0,House,57.7083367,12.9626043,0.0,"Backgårdsgatan 12,  Trandared ,  Borås"
448,Kellgrensgatan 10, Kungsholmen , Stockholm,4495000.0,53.5,Apartment,59.336125,18.0149102,0.0,"Kellgrensgatan 10,  Kungsholmen ,  Stockholm"
452,Margaretavägen 9, Jakobsberg , Järfälla,1300000.0,36.0,Apartment,59.42257099999999,17.833131,0.0,"Margaretavägen 9,  Jakobsberg ,  Järfälla"
459,Prästgårdsgatan 40, Sundbyberg/Duvbo , Sundbyberg,4200000.0,57.0,Apartment,59.3711396,17.9531785,0.0,"Prästgårdsgatan 40,  Sundbyberg/Duvbo ,  Sundbyberg"
464,Brunnehagen 7, Hisingen , Göteborg,2200000.0,80.0,Apartment,57.7460543,11.9236634,0.0,"Brunnehagen 7,  Hisingen ,  Göteborg"
467,Bredgården 6C, Vattholma , Uppsala,4634700.0,1622.0,Plot,60.01484439999999,17.7331499,0.0,"Bredgården 6C,  Vattholma ,  Uppsala"
474,Fabriksgatan 2C, Centrum , Landskrona,1295000.0,75.0,Apartment,63.8235913,20.2820023,0.0,"Fabriksgatan 2C,  Centrum ,  Landskrona"
482,Skomakargatan 4, Hamrånge , Gävle,700000.0,90.0,House,59.3244903,18.0707793,0.0,"Skomakargatan 4,  Hamrånge ,  Gävle"
485,Mandelblomsgatan 14, Vilhelmsberg , Falköping,2170000.0,123.0,TerracedHouse,60.1901003,24.9694808,0.0,"Mandelblomsgatan 14,  Vilhelmsberg ,  Falköping"
486,Vagnmakarebyn 5B, Bunkeflostrand , Malmö,1120000.0,59.5,Apartment,55.5574098,12.9324175,0.0,"Vagnmakarebyn 5B,  Bunkeflostrand ,  Malmö"
490,Stigfinnargatan 2H, Högberget , Ludvika,1050000.0,72.0,Apartment,60.1373544,15.1819056,0.0,"Stigfinnargatan 2H,  Högberget ,  Ludvika"
494,Dyckertsgatan 12, Centralt , Tidaholm,130000.0,54.0,Apartment,58.1838773,13.9654099,0.0,"Dyckertsgatan 12,  Centralt ,  Tidaholm"
496,Vetevägen 95, Hovsta , Örebro,1900000.0,80.5,Apartment,59.3478474,15.2267002,0.0,"Vetevägen 95,  Hovsta ,  Örebro"
499,Klövervägen 10, Gemla , Växjö,3405000.0,143.0,House,10.1631526,76.64127119999999,0.0,"Klövervägen 10,  Gemla ,  Växjö"
503,Fristadsgatan 14A, Årby , Eskilstuna,1025000.0,75.0,Apartment,59.3813166,16.5173985,0.0,"Fristadsgatan 14A,  Årby ,  Eskilstuna"
508,Styrmansgatan 14C, Östermalm , Stockholm,5750000.0,48.0,Apartment,59.3342282,18.0865312,0.0,"Styrmansgatan 14C,  Östermalm ,  Stockholm"
509,Rasbo Prästgård 102, Rasbo , Uppsala,2000000.0,75.0,House,59.9472688,17.8793542,0.0,"Rasbo Prästgård 102,  Rasbo ,  Uppsala"
513,Lentorpsgatan 30, Skarphagen , Norrköping,4010000.0,105.0,House,58.5762223,16.1545199,0.0,"Lentorpsgatan 30,  Skarphagen ,  Norrköping"
515,Badvägen 7A, Skåne , Klippan,730000.0,126.0,Apartment,39.7580957,37.0276844,0.0,"Badvägen 7A,  Skåne ,  Klippan"
516,Ferlingatan 16, Dotorp , Falköping,2100000.0,115.0,House,58.1763203,13.5681572,0.0,"Ferlingatan 16,  Dotorp ,  Falköping"
519,Tegelbruksvägen 16, Duved , Åre,1800000.0,60.5,Apartment,63.3924767,12.9175818,0.0,"Tegelbruksvägen 16,  Duved ,  Åre"
521,Valthornsvägen 12, Gottsunda , Uppsala,975000.0,64.5,Apartment,59.81287699999999,17.649053,0.0,"Valthornsvägen 12,  Gottsunda ,  Uppsala"
523,Kyrkogårdsgatan 16E, Luthagen , Uppsala,2725000.0,60.0,Apartment,59.81245209999999,17.6676794,0.0,"Kyrkogårdsgatan 16E,  Luthagen ,  Uppsala"
528,Torphagsvägen 6, Ekhagen , Stockholm,2300000.0,24.0,Apartment,59.3725399,18.0535969,0.0,"Torphagsvägen 6,  Ekhagen ,  Stockholm"
537,Jungfrudansen 27, Huvudsta , Solna,3500000.0,73.0,Apartment,59.3458068,17.99352,0.0,"Jungfrudansen 27,  Huvudsta ,  Solna"
545,Knottvägen 44, Södra Ryd , Skövde,2100000.0,144.0,House,39.7580957,37.0276844,0.0,"Knottvägen 44,  Södra Ryd ,  Skövde"
549,Segerstadsvägen 125, Hovshaga , Växjö,1715000.0,70.0,Apartment,45.4972764,9.203123,0.0,"Segerstadsvägen 125,  Hovshaga ,  Växjö"
554,Hålehögsvägen 112-0, Klagstorp , Trelleborg,625000.0,887.0,House,38.6518497,-77.4357739,0.0,"Hålehögsvägen 112-0,  Klagstorp ,  Trelleborg"
555,Kornettvägen 26, Tröinge Ängar , Falkenberg,1700000.0,53.5,Apartment,56.90273329999999,12.4888013,0.0,"Kornettvägen 26,  Tröinge Ängar ,  Falkenberg"
556,Portalgatan 27, Kapellgärdet , Uppsala,3360000.0,97.0,Apartment,59.8692747,17.6374663,0.0,"Portalgatan 27,  Kapellgärdet ,  Uppsala"
560,Lisebergsvägen 107, Liseberg , Stockholm,6770000.0,113.0,TerracedHouse,59.2854163,18.0221644,0.0,"Lisebergsvägen 107,  Liseberg ,  Stockholm"
561,Adress saknas, Skåne , Höör,4500000.0,340000.0,Farm,39.7580957,37.0276844,0.0,"Adress saknas,  Skåne ,  Höör"
564,Ruddammsvägen 5, Odensbacken , Örebro,395000.0,119.0,House,59.1378487,15.6731192,0.0,"Ruddammsvägen 5,  Odensbacken ,  Örebro"
565,Örtagårdsvägen 3, Nyby Gärde , Falkenberg,3100000.0,79.0,TerracedHouse,56.90273329999999,12.4888013,0.0,"Örtagårdsvägen 3,  Nyby Gärde ,  Falkenberg"
566,Stallgatan 9B, Centrala Väsby , Upplands Väsby,1735000.0,66.0,Apartment,59.3304591,18.0756766,0.0,"Stallgatan 9B,  Centrala Väsby ,  Upplands Väsby"
568,Norrtäljegatan 9B, Fålhagen , Uppsala,3650000.0,57.5,Apartment,59.7595841,18.7013584,0.0,"Norrtäljegatan 9B,  Fålhagen ,  Uppsala"
569,Riddaregatan 46, Väster , Växjö,5200000.0,194.0,House,59.3331565,18.083167,0.0,"Riddaregatan 46,  Väster ,  Växjö"
571,Kungsgatan 40, Centrum , Växjö,2575000.0,67.0,Apartment,63.8247665,20.2693161,0.0,"Kungsgatan 40,  Centrum ,  Växjö"
572,Vaksalagatan 44B, Centrum , Uppsala,2100000.0,47.0,Apartment,59.8741836,17.672651,0.0,"Vaksalagatan 44B,  Centrum ,  Uppsala"
577,Dalagatan 26F, Centrum , Rättvik,1165000.0,78.0,Apartment,59.3425231,18.0447912,0.0,"Dalagatan 26F,  Centrum ,  Rättvik"
581,Norra Trängallén 20B, Trängen , Skövde,1500000.0,86.0,Apartment,39.7580957,37.0276844,0.0,"Norra Trängallén 20B,  Trängen ,  Skövde"
582,Matsbogatan 7, Tallåkern , Hedemora,1300000.0,85.0,House,60.2933682,15.9642879,0.0,"Matsbogatan 7,  Tallåkern ,  Hedemora"
583,Kvarntorget 7, Kvarngärdet , Uppsala,2050000.0,49.0,Apartment,59.8672595,17.6486001,0.0,"Kvarntorget 7,  Kvarngärdet ,  Uppsala"
589,Monsungatan 89, Eriksberg , Göteborg,4900000.0,67.0,Apartment,57.6985824,11.9075779,0.0,"Monsungatan 89,  Eriksberg ,  Göteborg"
590,Ritargatan 1B, Salabacke , Uppsala,1400000.0,59.5,Apartment,59.8732608,17.6745737,0.0,"Ritargatan 1B,  Salabacke ,  Uppsala"
591,Svanjaktsvägen 6C, Vellinge kommun , Vellinge,7400000.0,159.0,TerracedHouse,55.4061068,12.9193227,0.0,"Svanjaktsvägen 6C,  Vellinge kommun ,  Vellinge"
592,Ulvsbygatan 4A, Karlstads kommun , Karlstad,1050000.0,38.0,Apartment,59.3954683,13.523643,0.0,"Ulvsbygatan 4A,  Karlstads kommun ,  Karlstad"
593,Svarttorp 16, Lekeryd , Jönköping,3100000.0,185.0,House,57.8135443,14.445632,0.0,"Svarttorp 16,  Lekeryd ,  Jönköping"
595,Dirigentvägen 26, Sjungande Dalen , Skellefteå,600000.0,40.0,Apartment,59.28656400000001,18.0962782,0.0,"Dirigentvägen 26,  Sjungande Dalen ,  Skellefteå"
596,Sturegatan 38C, Runneryd , Nässjö,375000.0,59.0,Apartment,59.3397299,18.0757191,0.0,"Sturegatan 38C,  Runneryd ,  Nässjö"
598,Blekingsborgsgatan 11, Blekingsborg , Malmö,1470000.0,84.5,Apartment,55.5777986,13.0042904,0.0,"Blekingsborgsgatan 11,  Blekingsborg ,  Malmö"
605,Bankälla Ödegården 4, Väring , Skövde,3500000.0,178.0,House,39.7580957,37.0276844,0.0,"Bankälla Ödegården 4,  Väring ,  Skövde"
607,Blockstensvägen 28, Aggerud , Karlskoga,1725000.0,125.0,House,59.3091465,14.4969895,0.0,"Blockstensvägen 28,  Aggerud ,  Karlskoga"
608,Santasaari 139, Nikkala , Haparanda,885000.0,34.0,LeisureHouse,65.7694444,23.8527778,0.0,"Santasaari 139,  Nikkala ,  Haparanda"
614,Frodegatan 33A, Fålhagen , Uppsala,2025000.0,39.5,Apartment,59.8616769,17.6554424,0.0,"Frodegatan 33A,  Fålhagen ,  Uppsala"
616,Domarvägen 33, Gammelstad , Luleå,3150000.0,149.0,House,65.6314357,22.0339807,0.0,"Domarvägen 33,  Gammelstad ,  Luleå"
617,Taxvägen 46, Fyllinge , Halmstad,4200000.0,136.0,House,56.6466657,12.9331309,0.0,"Taxvägen 46,  Fyllinge ,  Halmstad"
620,Rönnebergsvägen 11, Skåne , Svalöv,2795000.0,108.0,House,39.7580957,37.0276844,0.0,"Rönnebergsvägen 11,  Skåne ,  Svalöv"
622,Kronetorpsgatan 92B, Segevång , Malmö,1300000.0,91.5,Apartment,55.6146232,13.0512668,0.0,"Kronetorpsgatan 92B,  Segevång ,  Malmö"
623,Furugatan 3D, Haga , Västerås,880000.0,42.0,Apartment,57.6282236,18.3182924,0.0,"Furugatan 3D,  Haga ,  Västerås"
624,Övre Eneborgsvägen 32A, Eneborg , Helsingborg,590000.0,51.0,Apartment,56.0430426,12.7096014,0.0,"Övre Eneborgsvägen 32A,  Eneborg ,  Helsingborg"
626,Blekingegatan 38, Södermalm , Stockholm,6200000.0,61.0,Apartment,59.3100628,18.071565,0.0,"Blekingegatan 38,  Södermalm ,  Stockholm"
629,Brommagatan 20, Tågaborg , Helsingborg,2195000.0,88.0,Apartment,56.05582,12.6923738,0.0,"Brommagatan 20,  Tågaborg ,  Helsingborg"
630,Vibyholmsvägen 18, Slott , Stockholm,3050000.0,68.0,Apartment,59.2803761,18.0312309,0.0,"Vibyholmsvägen 18,  Slott ,  Stockholm"
631,Varvsvägen 11, Masmo , Huddinge,2650000.0,73.0,Apartment,59.2504256,17.8788521,0.0,"Varvsvägen 11,  Masmo ,  Huddinge"
632,Tideliusgatan 71, Södermalm , Stockholm,9700000.0,89.0,Apartment,59.310254,18.0627672,0.0,"Tideliusgatan 71,  Södermalm ,  Stockholm"
634,Kraftvägen 5, Lingbo , Ockelbo,950000.0,108.0,House,61.0349588,16.6822515,0.0,"Kraftvägen 5,  Lingbo ,  Ockelbo"
640,Ronnebygatan 4, Trossö , Karlskrona,2700000.0,108.0,Apartment,56.1620576,15.5895899,0.0,"Ronnebygatan 4,  Trossö ,  Karlskrona"
643,Slottsgatan 127, Centralt , Norrköping,1275000.0,62.5,Apartment,45.5000627,9.2273552,0.0,"Slottsgatan 127,  Centralt ,  Norrköping"
645,Sankt Eriksgatan 84, Vasastan , Stockholm,4650000.0,38.0,Apartment,59.338995,18.0361805,0.0,"Sankt Eriksgatan 84,  Vasastan ,  Stockholm"
646,Blåsutvägen 7, Skärmarbrink , Stockholm,2435000.0,25.0,Apartment,39.7580957,37.0276844,0.0,"Blåsutvägen 7,  Skärmarbrink ,  Stockholm"
647,Tallrotsgatan 7, Haga , Sundsvall,1200000.0,59.0,Apartment,62.4009763,17.3214638,0.0,"Tallrotsgatan 7,  Haga ,  Sundsvall"
651,Marieviksgatan 38, Liljeholmskajen , Stockholm,5300000.0,70.0,Apartment,59.308705,18.0283552,0.0,"Marieviksgatan 38,  Liljeholmskajen ,  Stockholm"
654,Skördevägen 5, Skaraberg , Skara,1150000.0,92.0,Apartment,60.3127217,15.3732597,0.0,"Skördevägen 5,  Skaraberg ,  Skara"
657,Solventilsgatan 3, Hisingen , Göteborg,2995000.0,65.0,Apartment,57.7224316,11.9466688,0.0,"Solventilsgatan 3,  Hisingen ,  Göteborg"
669,Västervägen 13, Skutskär , Älvkarleby,1695000.0,107.0,House,60.62967259999999,17.4126003,0.0,"Västervägen 13,  Skutskär ,  Älvkarleby"
674,Kattleberg 165, Älvängen , Ale,4000000.0,120.0,House,57.98250009999999,12.1545495,0.0,"Kattleberg 165,  Älvängen ,  Ale"
676,Sandhamnsgatan 1, Gärdet , Stockholm,6850000.0,78.0,Apartment,57.6247072,11.9048071,0.0,"Sandhamnsgatan 1,  Gärdet ,  Stockholm"
680,Backsippsgatan 17A, Gideonsberg , Västerås,1195000.0,55.0,Apartment,59.6273997,16.554393,0.0,"Backsippsgatan 17A,  Gideonsberg ,  Västerås"
684,Kavallerigatan 22, Centrala Väsby , Upplands Väsby,1700000.0,79.0,Apartment,59.5145657,17.916131,0.0,"Kavallerigatan 22,  Centrala Väsby ,  Upplands Väsby"
690,Bragdebo 115, Östervåla , Heby,4800000.0,257.0,House,38.8360389,-77.9053182,0.0,"Bragdebo 115,  Östervåla ,  Heby"
695,Hornsgatan 11A, Frösön , Östersund,925000.0,44.5,Apartment,59.3173787,18.0505854,0.0,"Hornsgatan 11A,  Frösön ,  Östersund"
701,Dalkroken 14, Kristdala , Oskarshamn,800000.0,103.0,House,57.4020094,16.1990164,0.0,"Dalkroken 14,  Kristdala ,  Oskarshamn"
702,Bastuhagsvägen 6, Enskede , Stockholm,2770000.0,57.0,Apartment,59.2756017,18.046729,0.0,"Bastuhagsvägen 6,  Enskede ,  Stockholm"
707,Brommagatan 8, Tågaborg , Helsingborg,1995000.0,61.0,Apartment,56.05582,12.6923738,0.0,"Brommagatan 8,  Tågaborg ,  Helsingborg"
708,Junelundsgatan 3, Söder , Jönköping,2250000.0,59.0,Apartment,57.7783121,14.1519883,0.0,"Junelundsgatan 3,  Söder ,  Jönköping"
709,Fritzhemsgatan 63B, Frösön , Östersund,1250000.0,68.5,Apartment,63.1784273,14.607236,0.0,"Fritzhemsgatan 63B,  Frösön ,  Östersund"
717,Blomgatan 8, Rudviken , Solna,3150000.0,43.0,Apartment,59.3597039,18.0078052,0.0,"Blomgatan 8,  Rudviken ,  Solna"
718,Rolsberga Träsket 429, Skåne , Höör,1500000.0,115.0,House,55.8077301,13.4723071,0.0,"Rolsberga Träsket 429,  Skåne ,  Höör"
721,Kubikenborgsgatan 17F, Kuben , Sundsvall,580000.0,40.5,Apartment,62.3761187,17.3526138,0.0,"Kubikenborgsgatan 17F,  Kuben ,  Sundsvall"
722,Hyllegatan 5A, Hälsobacken , Ystad,1400000.0,78.5,Apartment,55.4400792,13.8275526,0.0,"Hyllegatan 5A,  Hälsobacken ,  Ystad"
723,Bjerehov 11B, Bjärred , Lomma,1200000.0,50.0,Apartment,55.7202034,13.0173185,0.0,"Bjerehov 11B,  Bjärred ,  Lomma"
730,Orkestervägen 132, Sjungande Dalen , Skellefteå,1180000.0,63.0,Apartment,45.5074728,9.2531099,0.0,"Orkestervägen 132,  Sjungande Dalen ,  Skellefteå"
737,Vinodlargatan 1, Liljeholmskajen , Stockholm,5850000.0,71.0,Apartment,59.3069268,18.031789,0.0,"Vinodlargatan 1,  Liljeholmskajen ,  Stockholm"
738,Sockengatan 14A, Rosengården , Helsingborg,1200000.0,72.0,Apartment,59.2638519,15.2334788,0.0,"Sockengatan 14A,  Rosengården ,  Helsingborg"
742,Finnbergsvägen 3, Finnberget , Nacka,2970000.0,61.0,Apartment,59.7869734,14.5233852,0.0,"Finnbergsvägen 3,  Finnberget ,  Nacka"
745,Bastuhagsvägen 50, Enskede , Stockholm,2675000.0,45.5,Apartment,59.2756017,18.046729,0.0,"Bastuhagsvägen 50,  Enskede ,  Stockholm"
747,Måsvägen 14, Bergavik , Kalmar,4400000.0,179.0,House,59.37738159999999,13.4266088,0.0,"Måsvägen 14,  Bergavik ,  Kalmar"
749,Lammevallsgatan 42A, Jungfruplatsen , Mölndal,2995000.0,74.0,Apartment,57.656434,11.9931677,0.0,"Lammevallsgatan 42A,  Jungfruplatsen ,  Mölndal"
752,Hedenhösvägen 9, Solgård , Huddinge,2995000.0,88.5,Apartment,52.492704,1.398584,0.0,"Hedenhösvägen 9,  Solgård ,  Huddinge"
755,Danagatan 8D, Centrum , Sölvesborg,1250000.0,74.0,Apartment,56.0533037,14.5821826,0.0,"Danagatan 8D,  Centrum ,  Sölvesborg"
762,Mellangatan 1, Vissefjärda , Emmaboda,800000.0,122.0,House,56.6267404,15.5305759,0.0,"Mellangatan 1,  Vissefjärda ,  Emmaboda"
763,Viktorlundsgatan 13, Skaraborg , Grästorp,2500000.0,144.0,House,58.3378689,12.6825491,0.0,"Viktorlundsgatan 13,  Skaraborg ,  Grästorp"
765,Funkabotorget 3D, Berga , Kalmar,1195000.0,76.0,Apartment,56.689313,16.340928,0.0,"Funkabotorget 3D,  Berga ,  Kalmar"
767,Gryt 509, Norra Bro , Örebro,600000.0,32.0,House,58.1871883,16.8020384,0.0,"Gryt 509,  Norra Bro ,  Örebro"
768,Haveliden 10, Listerlandet , Sölvesborg,2080000.0,135.0,LeisureHouse,56.0148535,14.6878799,0.0,"Haveliden 10,  Listerlandet ,  Sölvesborg"
769,Timmerslätt 4B, Furulund , Partille,2760000.0,84.5,Apartment,57.7236442,12.1294668,0.0,"Timmerslätt 4B,  Furulund ,  Partille"
770,Kronetorpsgatan 106C, Segevång , Malmö,1400000.0,74.0,Apartment,55.6146232,13.0512668,0.0,"Kronetorpsgatan 106C,  Segevång ,  Malmö"
771,Södra vägen 51, Kvarnholmen , Nacka,3650000.0,54.0,Apartment,59.316667,18.133333,0.0,"Södra vägen 51,  Kvarnholmen ,  Nacka"
772,Tomtebogatan 8C, Måsta , Eskilstuna,1200000.0,78.0,Apartment,59.341406,18.031385,0.0,"Tomtebogatan 8C,  Måsta ,  Eskilstuna"
774,Hedenhösvägen 18, Solgård , Huddinge,2260000.0,72.0,Apartment,52.492704,1.398584,0.0,"Hedenhösvägen 18,  Solgård ,  Huddinge"
775,Borrbyvägen 8, Hammenhög , Simrishamn,3700000.0,99.0,House,55.4891069,14.1660526,0.0,"Borrbyvägen 8,  Hammenhög ,  Simrishamn"
779,Munkhagsgatan 84A, Johannelund , Linköping,1450000.0,66.5,Apartment,58.3935312,15.6713749,0.0,"Munkhagsgatan 84A,  Johannelund ,  Linköping"
780,Banjogatan 12G, Kronoparken , Karlstad,1290000.0,75.0,Apartment,59.409149,13.5702728,0.0,"Banjogatan 12G,  Kronoparken ,  Karlstad"
781,Repslagaregatan 37, Centrum , Falköping,710000.0,65.0,Apartment,63.8295936,20.2437594,0.0,"Repslagaregatan 37,  Centrum ,  Falköping"
783,Bergkullevägen 229, Sylte , Trollhättan,195000.0,39.0,Apartment,58.25557480000001,12.2675235,0.0,"Bergkullevägen 229,  Sylte ,  Trollhättan"
784,Jungfrudansen 16, Huvudsta , Solna,5000000.0,87.0,Apartment,59.3458068,17.99352,0.0,"Jungfrudansen 16,  Huvudsta ,  Solna"
787,Barkarbyvägen 63, Barkarbystaden , Järfälla,2500000.0,68.0,Apartment,59.4001312,17.8625101,0.0,"Barkarbyvägen 63,  Barkarbystaden ,  Järfälla"
788,Ängavångsgatan 106, Ödåkra , Helsingborg,3095000.0,120.0,TerracedHouse,38.68044709999999,-77.99670429999999,0.0,"Ängavångsgatan 106,  Ödåkra ,  Helsingborg"
790,Gustav III:s Boulevard 43, Frösunda , Solna,9500000.0,164.0,Apartment,59.36887909999999,18.0084334,0.0,"Gustav III:s Boulevard 43,  Frösunda ,  Solna"
793,Anteliigatan 5C, Väster , Växjö,2300000.0,78.0,Apartment,56.8788261,14.7865765,0.0,"Anteliigatan 5C,  Väster ,  Växjö"
795,Klara Norra Kyrkogata 32, Norrmalm , Stockholm,10000000.0,91.0,Apartment,59.3327036,18.0656255,0.0,"Klara Norra Kyrkogata 32,  Norrmalm ,  Stockholm"
796,Fogdegatan 5A, Lindö , Kalmar,1550000.0,56.0,Apartment,58.4299299,15.5720979,0.0,"Fogdegatan 5A,  Lindö ,  Kalmar"
798,Myrängsvägen 68, Stuvsta , Huddinge,5050000.0,122.0,TerracedHouse,59.25183029999999,18.0019699,0.0,"Myrängsvägen 68,  Stuvsta ,  Huddinge"
801,Syrenvägen 2, Nilstorp , Lund,10500000.0,121.0,House,55.6918998,13.2018329,0.0,"Syrenvägen 2,  Nilstorp ,  Lund"
804,Grude Ekelund 1, Ljung , Herrljunga,2050000.0,149.0,Farm,43.3746502,17.4096253,0.0,"Grude Ekelund 1,  Ljung ,  Herrljunga"
809,Lasarettsgatan 7, Jönköping Väster , Jönköping,2100000.0,82.0,Apartment,57.7032968,11.9578799,0.0,"Lasarettsgatan 7,  Jönköping Väster ,  Jönköping"
810,Plantagegatan 15, Linnéstaden , Göteborg,8300000.0,92.0,Apartment,57.6972619,11.9494043,0.0,"Plantagegatan 15,  Linnéstaden ,  Göteborg"
811,Skolvägen 4, Ullared , Falkenberg,2050000.0,160.0,House,57.1362284,12.718278,0.0,"Skolvägen 4,  Ullared ,  Falkenberg"
814,Kadettgatan 42C, Västra Berga , Helsingborg,950000.0,60.5,Apartment,56.0718178,12.7102363,0.0,"Kadettgatan 42C,  Västra Berga ,  Helsingborg"
815,Bergslagsgatan 69, Centralt , Norrköping,1600000.0,55.5,Apartment,57.7136673,11.9829225,0.0,"Bergslagsgatan 69,  Centralt ,  Norrköping"
817,Artillerigatan 80, Östermalm , Stockholm,3800000.0,32.0,Apartment,59.3382874,18.0842711,0.0,"Artillerigatan 80,  Östermalm ,  Stockholm"
818,Tant Bruns väg 57, Hovhult , Uddevalla,700000.0,69.0,Apartment,58.3498003,11.935649,0.0,"Tant Bruns väg 57,  Hovhult ,  Uddevalla"
820,Lovartsgatan 3, Dockan , Malmö,3670000.0,75.0,Apartment,55.6130806,12.988007,0.0,"Lovartsgatan 3,  Dockan ,  Malmö"
822,Vemdalsskalet Vargfjällsvägen 2D, Vemdalen , Härjedalen,2600000.0,80.0,Apartment,62.47608269999999,13.9875676,0.0,"Vemdalsskalet Vargfjällsvägen 2D,  Vemdalen ,  Härjedalen"
824,Centrumstigen 4B, Hjärup , Staffanstorp,2400000.0,69.0,Apartment,55.6685924,13.1425132,0.0,"Centrumstigen 4B,  Hjärup ,  Staffanstorp"
825,Kolonigatan 1A, Landala Egnahem , Göteborg,3325000.0,54.5,Apartment,59.660887,12.570514,0.0,"Kolonigatan 1A,  Landala Egnahem ,  Göteborg"
828,Herculesgatan 2, Barkarbystaden , Järfälla,3600000.0,92.0,Apartment,59.41358,17.8700046,0.0,"Herculesgatan 2,  Barkarbystaden ,  Järfälla"
833,Skarpbrunnavägen 9, Norsborg , Botkyrka,1100000.0,45.5,Apartment,59.2431457,17.820429,0.0,"Skarpbrunnavägen 9,  Norsborg ,  Botkyrka"
834,Gethornskroken 3C, Väster , Hässleholm,1100000.0,76.0,Apartment,56.157957,13.7541886,0.0,"Gethornskroken 3C,  Väster ,  Hässleholm"
839,Strandgatan 13B, Centrum , Skellefteå,1575000.0,50.0,Apartment,63.8212592,20.2753245,0.0,"Strandgatan 13B,  Centrum ,  Skellefteå"
845,Diamantslingan 42, Tyringe , Hässleholm,1290000.0,137.0,House,56.1498319,13.6140129,0.0,"Diamantslingan 42,  Tyringe ,  Hässleholm"
856,Noachsgatan 11, Norr , Eskilstuna,630000.0,29.0,Apartment,59.40174649999999,16.5568984,0.0,"Noachsgatan 11,  Norr ,  Eskilstuna"
859,Scheelevägen 5H, Tuna , Lund,2150000.0,46.0,Apartment,59.1954621,17.8186633,0.0,"Scheelevägen 5H,  Tuna ,  Lund"
860,Västra Kanalgatan 9, Södertälje Centrum , Södertälje,1100000.0,31.0,Apartment,64.752209,20.9456335,0.0,"Västra Kanalgatan 9,  Södertälje Centrum ,  Södertälje"
861,Herrestadsgatan 1, Surbrunn , Ystad,6700000.0,100.0,House,55.436551,13.8306609,0.0,"Herrestadsgatan 1,  Surbrunn ,  Ystad"
862,Birger Jarlsgatan 104N, Östermalm , Stockholm,3525000.0,28.0,Apartment,59.3413505,18.0655154,0.0,"Birger Jarlsgatan 104N,  Östermalm ,  Stockholm"
864,Tunavägen 43, Ärla , Eskilstuna,2000000.0,99.0,House,36.8364211,10.2023807,0.0,"Tunavägen 43,  Ärla ,  Eskilstuna"
867,Vallby-Kumla 4, Eskilstuna kommun , Eskilstuna,3200000.0,134.0,House,59.40174649999999,16.5568984,0.0,"Vallby-Kumla 4,  Eskilstuna kommun ,  Eskilstuna"
868,Chalmersgatan 11, Centrum , Göteborg,14000000.0,166.0,Apartment,57.6998491,11.9728027,0.0,"Chalmersgatan 11,  Centrum ,  Göteborg"
869,Krapperupsgatan 4, Rosenvång , Malmö,9875000.0,156.0,House,55.5810293,12.9560023,0.0,"Krapperupsgatan 4,  Rosenvång ,  Malmö"
870,Kammakargatan 21, Norrmalm , Stockholm,3000000.0,24.0,Apartment,59.3379078,18.0574071,0.0,"Kammakargatan 21,  Norrmalm ,  Stockholm"
872,Lindallén 2, Bjuvs kommun , Bjuv,1100000.0,180.0,House,38.0540133,23.5395117,0.0,"Lindallén 2,  Bjuvs kommun ,  Bjuv"
874,Hagagatan 13, Haga , Karlstad,1695000.0,71.0,Apartment,59.3467159,18.0506212,0.0,"Hagagatan 13,  Haga ,  Karlstad"
878,Kulladalsgatan 18B, Kulladal , Malmö,1150000.0,59.5,Apartment,55.5720696,13.001407,0.0,"Kulladalsgatan 18B,  Kulladal ,  Malmö"
879,Norrlandsgatan 34F, Luthagen , Uppsala,2885000.0,69.0,Apartment,59.8640552,17.612103,0.0,"Norrlandsgatan 34F,  Luthagen ,  Uppsala"
881,Torekovsgatan 11C, Sorgenfri , Malmö,1395000.0,44.0,Apartment,55.5923208,13.0225359,0.0,"Torekovsgatan 11C,  Sorgenfri ,  Malmö"
883,Norra Fiskehamnsgatan 19C, Borstahusen , Landskrona,4200000.0,116.0,ChainHouse,55.8960538,12.8086435,0.0,"Norra Fiskehamnsgatan 19C,  Borstahusen ,  Landskrona"
885,Pimpinellastigen 21, Stattena , Hässleholm,1395000.0,61.5,Apartment,56.1458273,13.7607881,0.0,"Pimpinellastigen 21,  Stattena ,  Hässleholm"
888,Axgatan 28, Bifrost , Mölndal,2195000.0,68.0,Apartment,57.6585352,11.9849403,0.0,"Axgatan 28,  Bifrost ,  Mölndal"
889,Torsgatan 74, Röda Bergen , Stockholm,10600000.0,98.0,Apartment,59.3394903,18.0392934,0.0,"Torsgatan 74,  Röda Bergen ,  Stockholm"
892,Wivalliusgatan 19, Kungsholmen , Stockholm,13900000.0,105.0,Apartment,59.3261028,18.0140367,0.0,"Wivalliusgatan 19,  Kungsholmen ,  Stockholm"
894,Gotlandsresan 65, Sävja , Uppsala,2010000.0,93.0,Apartment,59.8108192,17.6972676,0.0,"Gotlandsresan 65,  Sävja ,  Uppsala"
904,Björngatan 4D, Torpa , Jönköping,2125000.0,55.0,Apartment,22.9299539,85.0934851,0.0,"Björngatan 4D,  Torpa ,  Jönköping"
906,Hagaesplanaden 73, Hagastaden Vasastan , Stockholm,3800000.0,41.0,Apartment,59.3481774,18.0355939,0.0,"Hagaesplanaden 73,  Hagastaden Vasastan ,  Stockholm"
910,Musikvägen 13, Pukeberg , Nybro,1775000.0,137.0,House,48.200544,16.372359,0.0,"Musikvägen 13,  Pukeberg ,  Nybro"
911,Kastellgatan 18A, Centrum , Göteborg,5995000.0,117.0,Apartment,57.6945507,11.9557061,0.0,"Kastellgatan 18A,  Centrum ,  Göteborg"
914,Gellmansgatan 20, Öregrund , Östhammar,2900000.0,93.0,House,60.33435,18.4469038,0.0,"Gellmansgatan 20,  Öregrund ,  Östhammar"
915,Kungsgatan 9M, Söder , Jönköping,4100000.0,110.0,Apartment,59.84563919999999,17.666739,0.0,"Kungsgatan 9M,  Söder ,  Jönköping"
917,Borrarvägen 10, Skärgårdsstad , Österåker,5650000.0,150.0,House,39.7580957,37.0276844,0.0,"Borrarvägen 10,  Skärgårdsstad ,  Österåker"
921,Sveaborgsgatan 39, Rinkeby-Kista , Stockholm,2250000.0,92.0,Apartment,59.4168039,17.9142788,0.0,"Sveaborgsgatan 39,  Rinkeby-Kista ,  Stockholm"
922,Gladmansvägen 10, Saxdalen , Ludvika,450000.0,70.0,House,60.144544,14.9959979,0.0,"Gladmansvägen 10,  Saxdalen ,  Ludvika"
933,Brunnshögsgatan 45B, Brunnshög , Lund,1950000.0,43.0,Apartment,55.7263156,13.2415014,0.0,"Brunnshögsgatan 45B,  Brunnshög ,  Lund"
935,Mellangatan 26, Gränna , Jönköping,2650000.0,135.0,SemiDetachedHouse,57.6988078,11.9541608,0.0,"Mellangatan 26,  Gränna ,  Jönköping"
937,Rågvägen 40, Floda , Lerum,4300000.0,127.0,House,39.6900936,-104.8285012,0.0,"Rågvägen 40,  Floda ,  Lerum"
945,Muraregatan 16, Kvarnberget , Karlstad,1850000.0,73.0,Apartment,57.6931812,11.9623476,0.0,"Muraregatan 16,  Kvarnberget ,  Karlstad"
946,Timmerslätt 70D, Furulund , Partille,3100000.0,110.5,Apartment,57.7236442,12.1294668,0.0,"Timmerslätt 70D,  Furulund ,  Partille"
948,Industrigatan 27A, Nyhem , Nässjö,1170000.0,108.0,TerracedHouse,55.5983226,13.0299055,0.0,"Industrigatan 27A,  Nyhem ,  Nässjö"
950,Vigelsjövägen 14B, Vigelsjö , Norrtälje,1775000.0,77.0,Apartment,59.7671067,18.6721341,0.0,"Vigelsjövägen 14B,  Vigelsjö ,  Norrtälje"
951,Kungsgatan 32, Centrum , Uppsala,2400000.0,61.0,Apartment,63.8247665,20.2693161,0.0,"Kungsgatan 32,  Centrum ,  Uppsala"
953,Helsingforsgatan 77, Ekeby , Uppsala,2100000.0,69.5,Apartment,59.8534433,17.610898,0.0,"Helsingforsgatan 77,  Ekeby ,  Uppsala"
955,Reenstiernagatan 78, Eneby , Norrköping,670000.0,41.5,Apartment,58.6042681,16.1414665,0.0,"Reenstiernagatan 78,  Eneby ,  Norrköping"
957,Ahrenbergsgatan 4A, Munkebäck , Göteborg,2225000.0,51.0,Apartment,57.722666,12.0279893,0.0,"Ahrenbergsgatan 4A,  Munkebäck ,  Göteborg"
958,Storgatan 35A, Centrum , Motala,1075000.0,72.0,Apartment,63.8254066,20.2598534,0.0,"Storgatan 35A,  Centrum ,  Motala"
962,Kantatvägen 16, Hovhult , Uddevalla,700000.0,64.5,Apartment,58.3712472,11.9306393,0.0,"Kantatvägen 16,  Hovhult ,  Uddevalla"
969,Visthusgatan 3, Bålsta , Håbo,2165000.0,73.0,Apartment,59.62746050000001,16.4963609,0.0,"Visthusgatan 3,  Bålsta ,  Håbo"
970,Vindelgatan 47A, Byttorp , Borås,750000.0,46.0,Apartment,57.7227453,12.9106393,0.0,"Vindelgatan 47A,  Byttorp ,  Borås"
971,Kungsholmstorg 3D, Kungsholmen , Stockholm,11700000.0,99.0,Apartment,59.3278747,18.0428142,0.0,"Kungsholmstorg 3D,  Kungsholmen ,  Stockholm"
974,Kilian Zollsgatan 21B, Ribersborg , Malmö,3395000.0,79.0,Apartment,55.6012564,12.9758177,0.0,"Kilian Zollsgatan 21B,  Ribersborg ,  Malmö"
978,Blomsterkungsvägen 214, Hässelby Norra Villastad , Stockholm,3650000.0,118.0,TerracedHouse,59.3327036,18.0656255,0.0,"Blomsterkungsvägen 214,  Hässelby Norra Villastad ,  Stockholm"
980,Vigelsjövägen 11C, Vigelsjö , Norrtälje,1525000.0,69.5,Apartment,59.7671067,18.6721341,0.0,"Vigelsjövägen 11C,  Vigelsjö ,  Norrtälje"
981,Flädie Kyrkväg 7G, Flädie , Lomma,7000000.0,188.0,House,55.6753618,13.0714404,0.0,"Flädie Kyrkväg 7G,  Flädie ,  Lomma"
984,Stallvägen 2, Stöpen , Skövde,3345000.0,123.0,House,39.7580957,37.0276844,0.0,"Stallvägen 2,  Stöpen ,  Skövde"
986,Hjulaxelvägen 90, Gunsta , Uppsala,1995000.0,69.0,Apartment,59.8528338,17.8301785,0.0,"Hjulaxelvägen 90,  Gunsta ,  Uppsala"
987,Evenemangsgatan 40, Arenastaden , Solna,2965000.0,43.0,Apartment,59.370607,17.9998792,0.0,"Evenemangsgatan 40,  Arenastaden ,  Solna"
988,Bildradiogatan 8B, Järnbrott , Göteborg,2250000.0,49.0,Apartment,57.6571178,11.9257171,0.0,"Bildradiogatan 8B,  Järnbrott ,  Göteborg"
989,Stenbacksvägen 4B, Kolartorp , Haninge,5250000.0,127.0,SemiDetachedHouse,59.17554999999999,18.1413702,0.0,"Stenbacksvägen 4B,  Kolartorp ,  Haninge"
990,Munkhagsgatan 94, Johannelund , Linköping,1300000.0,53.0,Apartment,58.3935312,15.6713749,0.0,"Munkhagsgatan 94,  Johannelund ,  Linköping"
991,Salagatan 40B, Centrum , Uppsala,2050000.0,46.0,Apartment,59.8611184,17.6469354,0.0,"Salagatan 40B,  Centrum ,  Uppsala"
992,Hasselbacken 10, Upplands Väsby kommun , Upplands Väsby,1900000.0,67.5,Apartment,59.5274265,17.9061718,0.0,"Hasselbacken 10,  Upplands Väsby kommun ,  Upplands Väsby"
993,Bjungnäsvägen 6B, Falu kommun , Falun,2800000.0,110.0,SemiDetachedHouse,63.87559940000001,9.6223201,0.0,"Bjungnäsvägen 6B,  Falu kommun ,  Falun"
995,Rissneleden 153, Rissne , Sundbyberg,2150000.0,39.5,Apartment,59.3782902,17.9463349,0.0,"Rissneleden 153,  Rissne ,  Sundbyberg"
997,Bredgården 20, Vattholma , Uppsala,3995000.0,133.0,House,60.01484439999999,17.7331499,0.0,"Bredgården 20,  Vattholma ,  Uppsala"
998,Grenljusbacken 13, Gröndal , Stockholm,5900000.0,73.0,Apartment,59.3140287,18.0127817,0.0,"Grenljusbacken 13,  Gröndal ,  Stockholm"
1000,Liestavägen 70C, Rimbo , Norrtälje,900000.0,6643.0,Plot,59.7503638,18.4005109,0.0,"Liestavägen 70C,  Rimbo ,  Norrtälje"
1001,Gransätersgatan 31, Norrtälje kommun , Norrtälje,4400000.0,86.0,House,59.7595841,18.7013584,0.0,"Gransätersgatan 31,  Norrtälje kommun ,  Norrtälje"
1003,Producentgatan 21, Lindeborg , Malmö,1775000.0,79.0,Apartment,55.5643223,12.9869575,0.0,"Producentgatan 21,  Lindeborg ,  Malmö"
1006,Tranebergsvägen 39, Bromma , Stockholm,5425000.0,76.0,Apartment,59.3345869,17.9807253,0.0,"Tranebergsvägen 39,  Bromma ,  Stockholm"
1010,Limhamns Stationsväg 27, Limhamn , Malmö,3050000.0,55.0,Apartment,55.5757084,12.9199368,0.0,"Limhamns Stationsväg 27,  Limhamn ,  Malmö"
1011,Svanvägen 31, Rosenkälla , Nyköping,2895000.0,109.0,TerracedHouse,-26.1437708,28.0405646,0.0,"Svanvägen 31,  Rosenkälla ,  Nyköping"
1012,Kaskögatan 32, Kista , Stockholm,2200000.0,75.5,Apartment,59.3327036,18.0656255,0.0,"Kaskögatan 32,  Kista ,  Stockholm"
1014,Näckåvägen 25, Sysslebäck , Torsby,725000.0,122.0,House,60.14090719999999,13.0102132,0.0,"Näckåvägen 25,  Sysslebäck ,  Torsby"
